City_ID,City,Lat,Lng,Max Temp,Humidity,Cloudiness,Wind Speed,Country,Date
0,namibe,-15.1961,12.1522,75.29,44,0,10.22,AO,1623026179
1,chokurdakh,70.6333,147.9167,41.27,60,76,5.68,RU,1623026179
2,mataura,-46.1927,168.8643,49.48,65,0,3.78,NZ,1623026180
3,cape town,-33.9258,18.4232,68.0,34,0,16.11,ZA,1623025899
4,katsuura,35.1333,140.3,73.42,85,94,2.64,JP,1623026180
5,koslan,63.4564,48.8989,42.89,55,0,9.33,RU,1623026181
6,port macquarie,-31.4333,152.9167,61.38,53,9,3.83,AU,1623026181
7,sitka,57.0531,-135.33,53.49,71,90,6.91,US,1623026182
8,houma,29.5958,-90.7195,80.01,85,75,6.91,US,1623026182
9,roma,43.2128,-75.4557,86.14,59,1,4.61,US,1623026183
10,atuona,-9.8,-139.0333,80.46,62,1,8.46,PF,1623025966
11,hasaki,35.7333,140.8333,73.8,79,99,4.29,JP,1623026183
12,camana,-16.6228,-72.7111,63.3,85,64,6.08,PE,1623026184
13,avarua,-21.2078,-159.775,75.25,64,75,5.75,CK,1623026184
14,tura,25.5198,90.2201,74.75,95,52,6.35,IN,1623026185
15,florianopolis,-27.6146,-48.5012,66.43,89,75,1.99,BR,1623025994
16,rikitea,-23.1203,-134.9692,76.5,85,100,16.64,PF,1623026185
17,ribeira grande,38.5167,-28.7,64.94,88,100,8.75,PT,1623026186
18,hermanus,-34.4187,19.2345,57.0,58,2,5.01,ZA,1623026187
19,stromness,58.965,-3.296,50.25,74,100,8.72,GB,1623026187
20,padang,-0.9492,100.3543,80.29,69,30,2.28,ID,1623026187
21,nabire,-3.3667,135.4833,80.67,85,57,1.74,ID,1623026188
22,starosubkhangulovo,53.1031,57.4423,51.44,68,13,2.3,RU,1623026188
23,busselton,-33.65,115.3333,55.11,68,7,4.76,AU,1623026189
24,nikolskoye,59.7035,30.7861,57.2,77,0,4.47,RU,1623026189
25,bengkulu,-3.8004,102.2655,76.87,85,28,3.27,ID,1623026190
26,port alfred,-33.5906,26.891,63.03,35,0,8.99,ZA,1623026190
27,sembe,1.6481,14.5806,71.04,95,100,1.19,CG,1623026191
28,mangan,27.5167,88.5333,74.16,95,100,1.01,IN,1623026191
29,porto novo,6.4965,2.6036,82.22,84,45,6.33,BJ,1623026192
30,thompson,55.7435,-97.8558,57.36,88,90,5.75,CA,1623026036
31,puerto wilches,7.3483,-73.896,75.9,96,100,0.45,CO,1623026192
32,lebu,-37.6167,-73.65,48.09,81,100,6.67,CL,1623026193
33,isangel,-19.55,169.2667,75.31,64,75,11.03,VU,1623026193
34,vaini,-21.2,-175.2,78.96,78,75,13.8,TO,1623026194
35,kapaa,22.0752,-159.319,82.72,70,75,3.0,US,1623026194
36,adrar,20.5022,-10.0711,91.24,13,0,16.84,MR,1623026195
37,bartica,6.4,-58.6167,79.12,99,51,2.59,GY,1623026195
38,cabo san lucas,22.8909,-109.9124,98.82,37,1,5.75,MX,1623026195
39,vao,-22.6667,167.4833,70.0,63,22,15.64,NC,1623026196
40,acapulco,16.8634,-99.8901,87.8,70,75,6.91,MX,1623025940
41,lufkin,31.3382,-94.7291,86.11,74,1,6.51,US,1623026197
42,kodiak,57.79,-152.4072,66.2,30,1,12.66,US,1623026198
43,san cristobal,7.7669,-72.225,73.58,99,100,1.48,VE,1623026198
44,bethel,41.3712,-73.414,84.2,51,1,8.05,US,1623026199
45,wattegama,6.7989,81.4808,74.32,81,100,3.33,LK,1623026199
46,albany,42.6001,-73.9662,81.01,71,45,3.15,US,1623026199
47,saint-augustin,51.226,-58.6502,49.01,70,100,12.82,CA,1623026200
48,birecik,37.0294,37.9903,67.21,44,0,5.99,TR,1623026200
49,punta arenas,-53.15,-70.9167,39.31,81,0,11.18,CL,1623026136
50,jamestown,42.097,-79.2353,81.72,53,1,5.75,US,1623026047
51,torbay,47.6666,-52.7314,41.29,92,90,12.66,CA,1623026201
52,mareeba,-17.0,145.4333,72.48,79,22,8.97,AU,1623026202
53,yellowknife,62.456,-114.3525,50.56,57,75,7.0,CA,1623026202
54,ponta do sol,32.6667,-17.1,66.83,76,15,5.64,PT,1623026203
55,ushuaia,-54.8,-68.3,42.46,65,40,17.27,AR,1623026203
56,hilo,19.7297,-155.09,86.29,71,90,10.36,US,1623025957
57,ryotsu,38.0833,138.4333,75.16,70,100,5.7,JP,1623026204
58,puerto ayora,-0.7393,-90.3518,71.55,96,35,10.0,EC,1623026204
59,hami,42.8,93.45,70.43,13,1,16.24,CN,1623026205
60,kaitangata,-46.2817,169.8464,51.58,68,2,6.42,NZ,1623026205
61,maniitsoq,65.4167,-52.9,39.02,92,100,8.81,GL,1623026206
62,buenos aires,-34.6132,-58.3772,54.0,82,0,11.5,AR,1623025957
63,hobart,-42.8794,147.3294,60.66,58,75,3.0,AU,1623026206
64,grand gaube,-20.0064,57.6608,73.8,84,17,3.0,MU,1623026207
65,saint george,37.1041,-113.5841,102.67,11,1,4.0,US,1623026181
66,narsaq,60.9167,-46.05,53.82,76,100,3.53,GL,1623026208
67,ahipara,-35.1667,173.1667,62.29,86,100,10.11,NZ,1623026208
68,belmonte,-15.8631,-38.8828,73.4,88,40,3.44,BR,1623026209
69,saskylakh,71.9167,114.0833,41.47,50,99,6.71,RU,1623026209
70,vila,42.0304,-8.1588,55.74,81,100,3.91,PT,1623026209
71,airai,-8.9266,125.4092,68.04,56,93,2.98,TL,1623026210
72,broome,42.2506,-75.833,80.6,65,88,3.15,US,1623026210
73,arraial do cabo,-22.9661,-42.0278,72.97,88,69,14.61,BR,1623026146
74,muzhi,65.3667,64.6667,41.04,54,15,12.17,RU,1623026211
75,aitape,-3.1374,142.3475,78.04,91,100,7.54,PG,1623026212
76,leningradskiy,69.3833,178.4167,43.25,65,18,16.08,RU,1623026212
77,vardo,70.3705,31.1107,39.06,71,6,3.18,NO,1623026213
78,carnarvon,-24.8667,113.6333,60.87,72,90,8.05,AU,1623026213
79,bredasdorp,-34.5322,20.0403,58.32,44,5,8.21,ZA,1623026214
80,nchelenge,-9.3451,28.734,64.26,65,4,5.77,ZM,1623026214
81,barrow,71.2906,-156.7887,32.02,86,90,18.41,US,1623026215
82,butaritari,3.0707,172.7902,82.89,72,17,8.5,KI,1623026215
83,virginia beach,36.8529,-75.978,85.03,76,20,8.05,US,1623025948
84,saint-pierre,-21.3393,55.4781,73.4,78,90,19.57,RE,1623026216
85,le port,-20.9373,55.2919,73.4,81,14,10.78,RE,1623026216
86,port elizabeth,-33.918,25.5701,53.6,47,0,8.05,ZA,1623026217
87,ostersund,63.1792,14.6357,55.62,100,75,9.22,SE,1623026217
88,baracoa,20.3467,-74.4958,79.39,81,65,12.86,CU,1623026218
89,bambous virieux,-20.3428,57.7575,73.65,78,40,15.77,MU,1623026218
90,samoylovka,51.184,43.7081,53.33,93,99,4.9,RU,1623026219
91,codrington,-38.2667,141.9667,60.82,56,100,24.67,AU,1623026219
92,bredy,52.4153,60.3411,58.89,44,100,5.3,RU,1623025989
93,khorixas,-20.3667,14.9667,59.4,37,0,14.03,NA,1623026220
94,washougal,45.5826,-122.3534,63.68,69,88,7.0,US,1623026220
95,cherskiy,68.75,161.3,70.47,33,59,20.67,RU,1623026221
96,necochea,-38.5473,-58.7368,45.03,56,100,7.9,AR,1623026221
97,mehamn,71.0357,27.8492,40.46,68,1,4.27,NO,1623026222
98,saldanha,-33.0117,17.9442,68.0,32,0,12.66,ZA,1623026223
99,belyy yar,53.6039,91.3903,53.49,76,0,7.38,RU,1623026223
100,tabou,4.423,-7.3528,78.39,83,100,8.55,CI,1623026224
101,kisesa,-3.0833,34.15,60.24,75,3,6.71,TZ,1623026224
102,quatre cocos,-20.2078,57.7625,73.4,78,40,8.05,MU,1623026225
103,jishou,28.3167,109.7167,82.51,70,22,0.94,CN,1623026225
104,port moresby,-9.4431,147.1797,81.82,78,40,11.5,PG,1623026225
105,lavrentiya,65.5833,-171.0,34.75,90,100,5.48,RU,1623026226
106,guerrero negro,27.9769,-114.0611,65.82,68,86,15.9,MX,1623026227
107,qaanaaq,77.484,-69.3632,40.12,74,57,5.95,GL,1623026227
108,miragoane,18.4423,-73.0876,79.32,75,61,3.24,HT,1623026228
109,iqaluit,63.7506,-68.5145,33.53,86,75,8.99,CA,1623025936
110,klaksvik,62.2266,-6.589,49.12,98,100,8.01,FO,1623026228
111,provideniya,64.3833,-173.3,42.91,61,75,8.95,RU,1623026229
112,taoudenni,22.6783,-3.9836,100.8,9,84,7.74,ML,1623026230
113,balabac,7.9868,117.0645,83.93,79,100,9.06,PH,1623026230
114,pacific grove,36.6177,-121.9166,76.44,70,20,1.99,US,1623026012
115,san patricio,28.017,-97.5169,87.01,84,40,12.66,US,1623026231
116,udachnyy,66.4167,112.4,45.32,54,78,23.42,RU,1623026232
117,gamba,-2.65,10.0,74.97,96,100,5.73,GA,1623026232
118,cooma,-36.2333,149.1333,49.77,71,95,10.07,AU,1623026117
119,missoula,47.0166,-113.8009,54.0,39,100,4.76,US,1623026233
120,altagracia de orituco,9.8601,-66.3814,71.49,91,47,5.75,VE,1623026233
121,milkovo,54.7167,158.6167,46.47,82,95,0.89,RU,1623026234
122,solnechnyy,50.7214,136.6319,62.94,66,56,1.5,RU,1623026234
123,aksha,50.2814,113.2867,71.85,35,53,7.25,RU,1623026112
124,katherine,-14.4667,132.2667,78.8,57,69,8.05,AU,1623026235
125,sao joao da barra,-21.6403,-41.0511,73.83,86,100,13.51,BR,1623026235
126,mirador,-6.3708,-44.3631,74.88,59,37,0.94,BR,1623026236
127,swellendam,-34.0226,20.4417,57.58,38,3,10.98,ZA,1623026236
128,chuy,-33.6971,-53.4616,50.23,79,9,6.44,UY,1623026237
129,mandal,25.45,74.5667,84.7,51,0,7.94,IN,1623026237
130,nelson bay,-32.7167,152.15,60.12,66,33,1.01,AU,1623026238
131,broken hill,-31.95,141.4333,56.91,51,62,19.57,AU,1623026238
132,hithadhoo,-0.6,73.0833,82.87,73,2,12.55,MV,1623026238
133,tuktoyaktuk,69.4541,-133.0374,37.4,65,75,13.8,CA,1623026239
134,patea,-39.7583,174.4833,62.62,77,100,4.43,NZ,1623026239
135,tiksi,71.6872,128.8694,44.74,58,99,1.12,RU,1623026240
136,illela,13.7292,5.2975,83.14,58,100,10.89,NG,1623026240
137,kampene,-3.6,26.6667,67.5,98,100,1.01,CD,1623026241
138,cururupu,-1.8283,-44.8683,73.06,97,34,2.39,BR,1623026241
139,piacabucu,-10.4056,-36.4344,73.81,87,23,3.76,BR,1623026242
140,lagoa,39.05,-27.9833,63.55,88,100,12.82,PT,1623026242
141,tena,-0.9833,-77.8167,69.19,96,96,3.22,EC,1623026243
142,tarbes,43.25,0.1667,59.47,82,75,4.52,FR,1623026243
143,castro,-24.7911,-50.0119,60.71,72,100,3.65,BR,1623025987
144,dikson,73.5069,80.5464,30.11,90,100,14.16,RU,1623025987
145,mount gambier,-37.8333,140.7667,58.91,67,100,18.41,AU,1623026244
146,souillac,-20.5167,57.5167,73.4,78,40,8.05,MU,1623026245
147,upernavik,72.7868,-56.1549,36.61,82,25,3.91,GL,1623026246
148,cidreira,-30.1811,-50.2056,62.96,76,100,10.78,BR,1623026246
149,khatanga,71.9667,102.5,36.23,76,98,8.77,RU,1623026246
150,vestmannaeyjar,63.4427,-20.2734,48.04,88,100,19.91,IS,1623026247
151,batagay,67.6333,134.6333,56.5,34,100,8.5,RU,1623026248
152,road town,18.4167,-64.6167,80.69,78,40,11.5,VG,1623026248
153,ancud,-41.8697,-73.8203,48.0,100,90,12.66,CL,1623026249
154,zheshart,62.0731,49.5733,50.22,52,96,9.13,RU,1623026249
155,qandala,11.472,49.8728,89.58,51,0,2.62,SO,1623026250
156,touros,-5.1989,-35.4608,76.1,86,5,13.04,BR,1623025960
157,georgetown,5.4112,100.3354,81.9,88,20,3.44,MY,1623026190
158,skibbereen,51.55,-9.2667,49.8,86,100,6.93,IE,1623026250
159,anloga,5.7947,0.8973,82.62,80,38,10.0,GH,1623026251
160,meulaboh,4.1363,96.1285,76.06,85,100,4.61,ID,1623026252
161,bundaberg,-24.85,152.35,70.09,49,86,10.36,AU,1623026252
162,umm kaddadah,13.6017,26.6876,85.44,14,6,8.52,SD,1623026253
163,bluff,-46.6,168.3333,49.8,73,7,8.79,NZ,1623026253
164,sobral,-3.6861,-40.3497,76.5,69,23,1.1,BR,1623026254
165,ugoofaaru,5.6667,73.0,82.69,77,100,16.75,MV,1623026254
166,omboue,-1.5746,9.2618,75.85,95,100,5.99,GA,1623026255
167,ambovombe,-25.1667,46.0833,64.06,70,52,14.65,MG,1623026255
168,longyearbyen,78.2186,15.6401,35.44,80,0,8.05,SJ,1623026256
169,sao jose da coroa grande,-8.8978,-35.1478,75.6,84,21,7.14,BR,1623026256
170,santa cruz,-17.8,-63.1667,71.6,83,75,3.44,BO,1623026186
171,axim,4.8699,-2.2405,78.69,84,20,7.61,GH,1623026257
172,aklavik,68.2191,-135.0107,47.12,37,12,8.9,CA,1623026257
173,marystown,47.1666,-55.1483,52.86,100,79,5.99,CA,1623026258
174,champerico,14.3,-91.9167,84.34,74,15,6.42,GT,1623026258
175,yerbogachen,61.2767,108.0108,47.53,43,10,11.59,RU,1623026259
176,new norfolk,-42.7826,147.0587,60.3,42,100,8.7,AU,1623026259
177,berlevag,70.8578,29.0864,39.78,69,2,2.39,NO,1623026260
178,shirokiy,49.758,129.523,67.28,63,96,6.71,RU,1623026260
179,sabha,27.0377,14.4283,80.67,20,100,13.15,LY,1623026261
180,ayr,55.4627,-4.6339,51.93,87,32,1.14,GB,1623026261
181,chapais,49.7834,-74.8492,74.98,64,15,5.68,CA,1623025966
182,severo-kurilsk,50.6789,156.125,43.83,92,100,13.42,RU,1623026262
183,gat,31.61,34.7642,68.68,76,0,1.28,IL,1623026263
184,port blair,11.6667,92.75,80.64,83,90,9.22,IN,1623026263
185,mundo nuevo,18.7,-95.5,84.07,77,45,13.44,MX,1623026263
186,sur,22.5667,59.5289,83.19,78,1,8.97,OM,1623026264
187,fare,-16.7,-151.0167,80.73,73,91,9.53,PF,1623026264
188,mlonggo,-6.5333,110.7,80.6,83,20,2.3,ID,1623026265
189,riberalta,-10.9833,-66.1,82.4,83,75,2.35,BO,1623026266
190,marienburg,54.0359,19.0266,51.01,84,8,1.72,PL,1623026266
191,bryant,34.5959,-92.4891,76.6,58,73,1.99,US,1623026022
192,odweyne,9.4092,45.064,72.93,59,0,12.68,SO,1623026267
193,ilulissat,69.2167,-51.1,35.62,93,75,0.0,GL,1623026012
194,prince rupert,54.3161,-130.3201,51.89,84,90,2.3,CA,1623026081
195,khandyga,62.6667,135.6,63.88,68,100,5.57,RU,1623026268
196,saquarema,-22.92,-42.5103,75.2,78,0,3.44,BR,1623026269
197,mayo,38.8876,-76.5119,86.25,73,1,7.0,US,1623026269
198,karratha,-20.7377,116.8463,78.53,43,30,16.13,AU,1623026269
199,mar del plata,-38.0023,-57.5575,55.0,87,61,7.52,AR,1623026224
200,funadhoo,6.15,73.2667,82.4,77,100,15.7,MV,1623026271
201,pevek,69.7008,170.3133,48.83,62,5,11.97,RU,1623026271
202,sooke,48.3746,-123.7276,55.36,89,83,4.07,CA,1623026272
203,nome,64.5011,-165.4064,38.16,80,90,10.36,US,1623026272
204,aksarka,66.5606,67.7975,38.25,57,10,3.94,RU,1623025996
205,henties bay,-22.116,14.2845,67.86,50,0,10.65,NA,1623026273
206,bansang,13.4333,-14.65,86.34,62,45,10.63,GM,1623026273
207,parabel,58.6978,81.4825,52.05,83,100,8.93,RU,1623026273
208,rincon,32.296,-81.2354,80.85,83,90,5.84,US,1623026055
209,camacupa,-12.0167,17.4833,51.22,58,41,1.7,AO,1623026274
210,changji,44.0167,87.3167,65.19,45,0,2.71,CN,1623026274
211,fukue,32.6881,128.8419,71.96,88,75,2.3,JP,1623026275
212,kassala,15.451,36.4,92.68,27,100,3.22,SD,1623026275
213,pitimbu,-7.4706,-34.8086,75.79,85,19,9.73,BR,1623026276
214,luderitz,-26.6481,15.1594,67.51,31,0,14.76,NA,1623026276
215,konde,-4.95,39.75,76.71,77,39,12.66,TZ,1623026277
216,linjiang,41.8069,126.9078,68.56,54,0,2.98,CN,1623026277
217,clyde river,70.4692,-68.5914,34.03,93,90,18.41,CA,1623026278
218,tasiilaq,65.6145,-37.6368,41.16,89,90,4.38,GL,1623026278
219,lasa,46.6166,10.7002,57.61,94,100,2.01,IT,1623026279
220,fort nelson,58.8053,-122.7002,62.6,39,75,11.5,CA,1623026279
221,lorengau,-2.0226,147.2712,84.54,65,22,3.22,PG,1623026280
222,mukilteo,47.9445,-122.3046,56.16,84,90,12.66,US,1623026280
223,esperance,-33.8667,121.9,58.84,59,100,27.69,AU,1623026281
224,poum,-20.2333,164.0167,73.96,57,100,15.19,NC,1623026281
225,ucluelet,48.9329,-125.5528,50.0,93,90,4.61,CA,1623025989
226,sakakah,29.9697,40.2064,81.97,16,0,9.17,SA,1623026282
227,faanui,-16.4833,-151.75,81.36,76,75,11.34,PF,1623026282
228,malumfashi,11.7853,7.6218,76.21,64,73,4.97,NG,1623026283
229,saint-philippe,-21.3585,55.7679,72.99,82,98,17.67,RE,1623026283
230,marsa matruh,31.3525,27.2453,66.2,82,0,5.75,EG,1623026284
231,rostovka,55.3842,71.8891,57.61,67,0,6.13,RU,1623026284
232,hinton,53.4001,-117.5857,53.64,66,100,1.28,CA,1623026285
233,cabrobo,-8.5142,-39.31,73.99,69,10,15.19,BR,1623026285
234,kaprijke,51.208,3.6273,57.18,77,7,4.32,BE,1623026286
235,vostok,46.4856,135.8833,65.64,45,42,8.3,RU,1623026286
236,santa maria,-29.6842,-53.8069,56.5,94,90,13.87,BR,1623026287
237,pisco,-13.7,-76.2167,63.01,82,20,9.22,PE,1623026287
238,dingle,10.9995,122.6711,82.92,72,99,3.83,PH,1623026288
239,bata,1.8639,9.7658,77.11,88,100,0.22,GQ,1623026288
240,mandera,3.9366,41.867,77.4,65,64,18.01,KE,1623026289
241,mandalgovi,45.7625,106.2708,48.69,62,1,18.48,MN,1623026289
242,madimba,-10.4,40.3333,70.63,77,3,13.18,TZ,1623026290
243,dondaicha,21.3333,74.5667,82.02,69,56,9.95,IN,1623026290
244,nanortalik,60.1432,-45.2371,43.18,76,100,12.53,GL,1623026290
245,college,64.8569,-147.8028,71.26,51,75,12.66,US,1623026041
246,mitsamiouli,-11.3847,43.2844,78.35,69,8,15.19,KM,1623026291
247,constitucion,-35.3333,-72.4167,51.93,68,100,5.64,CL,1623026292
248,sioux lookout,50.1001,-91.917,77.38,65,75,8.05,CA,1623026292
249,itarema,-2.9248,-39.9167,76.86,86,9,7.58,BR,1623026292
250,manokwari,-0.8667,134.0833,82.22,71,100,3.15,ID,1623026293
251,rostusa,41.61,20.6,58.14,84,100,3.44,MK,1623026294
252,aleksandrovskoye,44.7142,43.0008,55.4,88,100,6.71,RU,1623026294
253,anqiu,36.4342,119.1925,82.45,46,100,3.47,CN,1623026295
254,zyryanka,65.75,150.85,45.27,78,100,11.56,RU,1623026295
255,abu dhabi,24.4667,54.3667,91.4,70,0,9.22,AE,1623026252
256,skerries,53.5828,-6.1083,54.68,81,100,7.67,IE,1623026296
257,inuvik,68.3499,-133.7218,46.4,49,9,9.22,CA,1623026297
258,kahului,20.8947,-156.47,86.02,65,40,26.46,US,1623026297
259,pishin,30.5803,66.9961,75.04,51,0,3.4,PK,1623026297
260,kaikalur,16.5667,81.2,80.82,67,24,5.06,IN,1623026298
261,mindelo,16.8901,-24.9804,72.95,78,20,23.76,CV,1623026298
262,antofagasta,-23.65,-70.4,57.2,82,71,9.22,CL,1623026299
263,senanga,-16.1167,23.2667,49.03,66,34,5.57,ZM,1623026299
264,mackay,-21.15,149.2,71.04,64,90,14.97,AU,1623026300
265,ardesen,41.1911,40.9875,57.16,64,0,4.45,TR,1623026300
266,kochubey,44.3861,46.5825,62.17,86,100,16.6,RU,1623026300
267,salamiyah,35.0113,37.0532,61.93,47,0,5.41,SY,1623026301
268,kampot,10.6167,104.1833,80.6,89,75,9.22,KH,1623026302
269,hearst,49.6835,-83.6665,84.2,45,0,10.36,CA,1623026302
270,mamallapuram,12.6264,80.1722,84.06,73,93,11.97,IN,1623026303
271,sumbe,-11.2061,13.8437,73.72,84,17,6.67,AO,1623026303
272,molepolole,-24.4066,25.4951,44.74,79,0,7.18,BW,1623026304
273,cap malheureux,-19.9842,57.6142,73.89,84,16,3.0,MU,1623026304
274,monchegorsk,67.9397,32.8739,45.03,68,2,1.63,RU,1623026305
275,suez,29.9737,32.5263,66.4,72,0,8.66,EG,1623026305
276,kaeo,-35.1,173.7833,59.32,96,100,12.91,NZ,1623026306
277,agadez,19.75,10.25,89.85,12,100,14.23,NE,1623026306
278,fortuna,40.5982,-124.1573,61.0,58,1,14.97,US,1623026307
279,grandview,38.8858,-94.533,83.88,70,1,5.66,US,1623026307
280,rawson,-43.3002,-65.1023,48.52,53,24,20.49,AR,1623026308
281,kedougou,12.5579,-12.1743,90.18,58,100,2.3,SN,1623026308
282,chikwawa,-16.0335,34.8009,61.07,94,61,2.71,MW,1623026309
283,bafra,41.5678,35.9069,61.83,72,12,4.09,TR,1623026309
284,dandong,40.1292,124.3947,72.34,61,98,3.91,CN,1623026310
285,victoria,22.2855,114.1577,83.97,81,73,3.0,HK,1623026040
286,simoes,-7.5989,-40.8178,71.56,64,33,6.67,BR,1623026311
287,goshen,41.5823,-85.8344,82.49,47,75,14.97,US,1623026311
288,bandrele,-12.9067,45.1914,78.8,78,90,16.11,YT,1623026312
289,kavaratti,10.5669,72.642,81.93,79,100,11.79,IN,1623026312
290,port hardy,50.6996,-127.4199,57.38,67,75,8.05,CA,1623026312
291,pangnirtung,66.1451,-65.7125,27.79,93,88,3.44,CA,1623026313
292,batemans bay,-35.7167,150.1833,61.92,50,39,4.45,AU,1623026192
293,requena,39.4883,-1.1004,59.7,78,0,2.24,ES,1623026314
294,san quintin,30.4833,-115.95,63.77,69,9,10.74,MX,1623026180
295,alvaraes,-3.2208,-64.8042,76.28,85,72,2.53,BR,1623026314
296,yulara,-25.2406,130.9889,53.6,54,45,4.61,AU,1623026315
297,abu samrah,35.3029,37.1841,64.63,43,0,6.6,SY,1623026315
298,petropavlovsk-kamchatskiy,53.0452,158.6483,46.4,93,90,2.24,RU,1623026290
299,tual,-5.6667,132.75,81.59,79,100,14.16,ID,1623026316
300,los llanos de aridane,28.6585,-17.9182,64.15,83,0,13.56,ES,1623026317
301,san ignacio,17.1561,-89.0714,80.74,94,40,6.8,BZ,1623026317
302,chumikan,54.7183,135.315,42.51,82,66,6.89,RU,1623026317
303,hovd,48.0056,91.6419,49.01,43,0,4.65,MN,1623026318
304,pedraza,10.1874,-74.915,78.91,87,100,4.92,CO,1623026318
305,shitkino,56.3703,98.3543,54.32,73,98,11.48,RU,1623026319
306,faya,18.3851,42.4509,69.8,28,0,3.18,SA,1623026319
307,dakoro,14.5106,6.765,81.03,55,100,13.94,NE,1623026320
308,mosta,35.9092,14.4256,69.46,94,0,6.91,MT,1623026320
309,bathsheba,13.2167,-59.5167,80.6,69,40,21.85,BB,1623026321
310,peleduy,59.6289,112.7406,54.3,40,10,12.84,RU,1623026321
311,nunoa,-14.48,-70.6411,39.47,74,5,5.75,PE,1623026322
312,te anau,-45.4167,167.7167,46.6,77,1,0.49,NZ,1623026322
313,east london,-33.0153,27.9116,63.07,39,0,10.47,ZA,1623026323
314,bonavista,48.6499,-53.1147,39.2,81,98,1.14,CA,1623026323
315,goundam,16.4145,-3.6708,91.4,28,1,3.53,ML,1623026324
316,pietersburg,-23.9045,29.4688,45.45,87,69,2.3,ZA,1623026324
317,normandin,48.8333,-72.5321,70.11,64,97,4.61,CA,1623026214
318,yayva,59.3303,57.2641,58.17,84,22,1.05,RU,1623026325
319,zeya,53.75,127.2667,76.03,32,48,4.25,RU,1623026325
320,vanimo,-2.6741,141.3028,79.25,89,99,9.06,PG,1623026326
321,manono,-7.3,27.4167,71.46,59,76,6.8,CD,1623026326
322,itoman,26.1247,127.6694,77.02,90,75,12.66,JP,1623026327
323,kiama,-34.6833,150.8667,65.25,65,94,3.0,AU,1623026327
324,taga,46.95,24.05,53.92,90,7,2.3,RO,1623026328
325,seoul,37.5683,126.9778,72.36,64,75,5.79,KR,1623026328
326,dali,25.7,100.1833,68.43,77,38,3.31,CN,1623026328
327,namtsy,62.7161,129.6658,62.71,62,100,10.49,RU,1623026329
328,damoh,23.8333,79.45,87.33,46,99,8.93,IN,1623026330
329,tuatapere,-46.1333,167.6833,49.82,71,4,4.43,NZ,1623026330
330,epinal,48.1833,6.45,59.14,99,90,4.09,FR,1623026065
331,erdenet,49.0333,104.0833,35.92,100,100,6.91,MN,1623026331
332,copiapo,-27.3667,-70.3333,53.6,87,90,5.75,CL,1623026331
333,freeport,40.6576,-73.5832,86.99,67,1,1.01,US,1623026051
334,tayga,56.06,85.6197,58.12,89,9,8.59,RU,1623026332
335,cajibio,2.6227,-76.5704,58.78,97,100,3.22,CO,1623026332
336,oksfjord,70.2396,22.3479,46.47,46,95,7.81,NO,1623026333
337,cap-aux-meules,47.3821,-61.8597,48.2,81,49,4.61,CA,1623026333
338,ossora,59.2353,163.0719,41.65,89,100,5.3,RU,1623026334
339,sisimiut,66.9395,-53.6735,41.74,86,100,0.09,GL,1623026334
340,dodge city,37.7528,-100.0171,83.71,63,40,8.99,US,1623026243
341,malkangiri,18.35,81.9,82.26,72,100,1.19,IN,1623026335
342,cabedelo,-6.9811,-34.8339,75.87,85,35,11.12,BR,1623026336
343,makakilo city,21.3469,-158.0858,84.52,50,75,9.22,US,1623026336
344,elizabeth city,36.2946,-76.2511,84.25,78,1,5.75,US,1623026337
345,balikpapan,-1.2675,116.8289,78.15,86,100,4.16,ID,1623026337
346,pochutla,15.7432,-96.4661,77.83,81,100,5.26,MX,1623026338
347,tshane,-24.0196,21.8684,44.85,66,0,9.91,BW,1623026338
348,tromso,69.6496,18.957,43.45,49,34,5.23,NO,1623026339
349,bosaso,11.2842,49.1816,91.83,39,0,18.07,SO,1623026339
350,grindavik,63.8424,-22.4338,46.4,100,75,9.22,IS,1623026340
351,cockburn town,21.4612,-71.1419,80.56,74,40,17.27,TC,1623026340
352,lufilufi,-13.8745,-171.5986,89.38,74,26,3.33,WS,1623026341
353,pangkalanbuun,-2.6833,111.6167,81.18,82,56,3.6,ID,1623026327
354,buri,-23.7975,-48.5928,59.43,98,41,8.21,BR,1623026342
355,half moon bay,37.4636,-122.4286,80.24,59,1,1.99,US,1623026343
356,sol-iletsk,51.1631,54.9918,59.74,50,17,7.85,RU,1623026123
357,pauini,-7.7136,-66.9764,73.18,98,100,1.92,BR,1623026344
358,lompoc,34.6391,-120.4579,71.74,74,90,13.0,US,1623026344
359,novooleksiyivka,46.2269,34.6428,57.33,86,69,9.22,UA,1623026345
360,ust-karsk,52.7011,118.8077,78.49,28,15,6.51,RU,1623026345
361,concarneau,47.875,-3.9225,57.06,93,4,5.37,FR,1623026345
362,novosheshminsk,55.0651,51.2338,57.22,83,3,1.61,RU,1623026346
363,port lincoln,-34.7333,135.8667,64.17,51,0,25.34,AU,1623026346
364,baijiantan,45.6333,85.1833,69.58,21,11,5.53,CN,1623026347
365,qui nhon,13.7667,109.2333,83.55,68,100,6.73,VN,1623026347
366,anshun,26.25,105.9333,70.75,61,99,3.98,CN,1623026348
367,limon,10.0,-83.0333,84.09,74,0,5.75,CR,1623026348
368,verkhnyaya sysert,56.4372,60.75,48.0,64,10,5.35,RU,1623026349
369,kaz,52.9113,87.3105,54.99,83,12,2.75,RU,1623026349
370,christchurch,-43.5333,172.6333,50.92,95,90,3.0,NZ,1623026350
371,george,-33.963,22.4617,69.35,23,0,13.8,ZA,1623026350
372,kyra,49.5776,111.9753,68.9,37,100,7.72,RU,1623026350
373,hoquiam,46.9809,-123.8893,58.01,64,75,18.41,US,1623026351
374,paita,-5.0892,-81.1144,68.14,81,100,14.32,PE,1623026351
375,kavieng,-2.5744,150.7967,83.32,71,12,6.08,PG,1623026352
376,buchanan,5.8808,-10.0467,75.2,94,75,6.02,LR,1623026352
377,naryan-mar,67.6713,53.087,36.03,64,100,13.0,RU,1623026353
378,orange cove,36.6244,-119.3137,98.62,11,43,9.46,US,1623026353
379,shaki,41.0833,47.1667,62.91,93,87,6.13,AZ,1623026354
380,kruisfontein,-34.0033,24.7314,55.36,25,0,8.7,ZA,1623026354
381,saint anthony,45.0205,-93.218,91.54,37,1,5.01,US,1623026355
382,tadine,-21.55,167.8833,72.95,62,100,12.86,NC,1623026355
383,macapa,0.0389,-51.0664,82.38,83,75,6.91,BR,1623026356
384,binche,50.4115,4.1647,56.43,88,1,5.57,BE,1623026356
385,pushkino,56.0172,37.8667,59.0,94,20,2.24,RU,1623026357
386,darhan,49.4867,105.9228,44.22,91,100,11.18,MN,1623026357
387,marsabit,2.3284,37.9899,60.93,85,18,16.98,KE,1623026357
388,kangaba,11.9333,-8.4167,85.14,43,1,1.66,ML,1623026358
389,korla,41.7597,86.1469,74.77,32,48,10.02,CN,1623026358
390,eureka,40.8021,-124.1637,62.37,70,100,5.99,US,1623026359
391,portland,45.5234,-122.6762,63.18,65,90,1.99,US,1623026319
392,hadsten,56.3282,10.0493,59.0,88,75,3.44,DK,1623026359
393,neuquen,-38.9516,-68.0591,46.29,76,0,0.0,AR,1623026355
394,rio grande,-32.035,-52.0986,48.2,93,100,2.3,BR,1623026360
395,coquimbo,-29.9533,-71.3436,55.13,87,90,2.55,CL,1623026361
396,saint-joseph,-21.3667,55.6167,73.4,78,90,19.57,RE,1623026361
397,walvis bay,-22.9575,14.5053,72.55,24,0,13.8,NA,1623026362
398,moussoro,13.6408,16.4901,87.94,35,38,3.83,TD,1623026362
399,raudeberg,61.9875,5.1352,50.86,95,16,8.43,NO,1623026363
400,oktyabrskiy,54.4815,53.471,54.88,77,1,1.23,RU,1623026363
401,tariba,7.8188,-72.2243,73.96,99,100,1.83,VE,1623026364
402,hambantota,6.1241,81.1185,75.2,100,0,3.44,LK,1623026364
403,pontianak,-0.0333,109.3333,76.98,94,20,3.87,ID,1623026364
404,alofi,-19.0595,-169.9187,78.69,65,6,6.91,NU,1623026365
405,havre-saint-pierre,50.2334,-63.5986,52.39,62,1,5.75,CA,1623026365
406,valkeakoski,61.2642,24.0312,54.99,88,7,3.27,FI,1623026366
407,bonthe,7.5264,-12.505,79.47,88,100,7.85,SL,1623026366
408,inirida,3.8653,-67.9239,73.78,98,39,3.02,CO,1623026367
409,mahebourg,-20.4081,57.7,73.69,78,40,8.05,MU,1623026367
410,curup,-3.4667,102.5333,72.09,85,36,1.95,ID,1623026368
411,tokmak,47.2514,35.7058,55.18,90,100,5.95,UA,1623026368
412,la ronge,55.1001,-105.2842,64.65,48,75,8.05,CA,1623026369
413,onverwacht,5.5833,-55.1833,76.86,100,40,0.67,SR,1623026369
414,suntar,62.1444,117.6319,54.25,32,4,15.86,RU,1623026370
415,tessalit,20.1986,1.0114,91.62,11,0,6.4,ML,1623026370
416,geraldton,-28.7667,114.6,57.61,77,100,16.46,AU,1623026370
417,hobyo,5.3505,48.5268,78.4,83,15,19.57,SO,1623026371
418,bull savanna,17.8868,-77.5902,77.32,76,6,10.38,JM,1623026371
419,antalaha,-14.9003,50.2788,70.56,87,26,8.77,MG,1623026372
420,baruun-urt,46.6806,113.2792,74.48,36,41,15.14,MN,1623026372
421,comodoro rivadavia,-45.8667,-67.5,49.86,53,0,17.27,AR,1623026373
422,kempsey,-31.0833,152.8333,61.45,66,9,1.99,AU,1623026172
423,yatou,37.15,122.3833,73.92,62,94,10.29,CN,1623026373
424,alice springs,-23.7,133.8833,58.55,47,0,4.05,AU,1623026374
425,lakes entrance,-37.8811,147.981,57.99,72,99,1.01,AU,1623026374
426,kichmengskiy gorodok,59.9816,45.7854,55.74,91,67,6.24,RU,1623026375
427,simbahan,6.3032,120.5836,82.87,73,100,4.7,PH,1623026375
428,magistralnyy,56.1725,107.4458,56.28,40,100,2.84,RU,1623026376
429,soplaviento,10.3931,-75.1408,84.13,85,100,3.71,CO,1623026376
430,port hawkesbury,45.6169,-61.3485,53.19,87,1,1.01,CA,1623026097
431,drumheller,51.4617,-112.7101,69.13,28,100,3.44,CA,1623026377
432,aban,56.67,96.06,55.38,76,100,15.37,RU,1623026377
433,bud,39.447,-86.1758,78.78,91,100,8.61,US,1623026378
434,kajaani,64.2273,27.7285,53.65,66,0,9.22,FI,1623026378
435,mount isa,-20.7333,139.5,69.57,40,0,8.05,AU,1623026378
436,okakarara,-20.5833,17.4333,43.38,63,0,7.49,NA,1623026379
437,cayenne,4.9333,-52.3333,78.1,89,90,3.89,GF,1623026379
438,mwinilunga,-11.7358,24.4293,50.85,84,100,4.34,ZM,1623026380
439,nuqui,5.7125,-77.2708,78.04,89,100,4.7,CO,1623026380
440,deming,32.2687,-107.7586,94.89,7,1,23.02,US,1623026381
441,sompeta,18.9333,84.6,85.95,76,99,12.19,IN,1623026382
442,chara,56.9064,118.2631,50.77,80,100,7.83,RU,1623026382
443,talnakh,69.4865,88.3972,31.77,95,100,5.68,RU,1623026382
444,riyadh,24.6877,46.7219,91.54,15,0,3.44,SA,1623026135
445,sao filipe,14.8961,-24.4956,75.02,72,13,14.9,CV,1623026383
446,taiobeiras,-15.8078,-42.2331,63.39,87,100,4.03,BR,1623026384
447,bani walid,31.7566,13.9942,74.57,32,25,7.7,LY,1623026384
448,strezhevoy,60.7333,77.5889,46.4,71,0,4.47,RU,1623026385
449,sayyan,15.1718,44.3244,63.34,53,30,3.2,YE,1623026385
450,vila velha,-20.3297,-40.2925,73.0,88,0,2.3,BR,1623026386
451,hajnowka,52.7433,23.5812,55.78,75,12,1.01,PL,1623026386
452,znamenskoye,57.1281,73.8282,58.41,72,47,5.26,RU,1623026387
453,whangamata,-37.2,175.8667,64.09,86,100,20.62,NZ,1623026387
454,lakatoro,-16.0999,167.4164,78.35,72,98,13.02,VU,1623026387
455,vokhtoga,58.8147,41.0461,54.36,73,9,2.62,RU,1623026388
456,sobolevo,54.4299,31.8996,53.64,91,87,5.35,RU,1623026388
457,trelew,-43.249,-65.3051,47.79,52,37,16.82,AR,1623026111
458,wajid,3.8093,43.2471,72.7,77,7,17.76,SO,1623026389
459,digapahandi,19.3667,84.5833,86.9,66,100,3.65,IN,1623026389
460,pomabamba,-8.8333,-77.4667,50.43,85,99,1.66,PE,1623026390
461,orlik,52.5178,99.825,44.44,56,15,3.22,RU,1623026390
462,lukovetskiy,64.2956,41.9211,35.58,68,9,7.25,RU,1623026391
463,poddorye,57.4695,31.1156,56.8,85,34,4.5,RU,1623026391
464,maceio,-9.6658,-35.7353,72.84,94,0,4.25,BR,1623026379
465,trincomalee,8.5711,81.2335,80.85,79,95,16.44,LK,1623026392
466,wonthaggi,-38.6044,145.5913,61.2,63,100,22.48,AU,1623026392
467,arzachena,41.0769,9.3887,66.2,77,0,13.8,IT,1623026393
468,puerto quijarro,-17.7833,-57.7667,77.31,47,7,1.3,BO,1623026393
469,maltahohe,-24.8333,16.9833,47.19,48,6,8.77,NA,1623026394
470,plettenberg bay,-34.0527,23.3716,68.59,29,4,13.71,ZA,1623026394
471,beloha,-25.1667,45.05,60.73,76,2,12.39,MG,1623026395
472,whitianga,-36.8333,175.7,59.02,89,100,19.39,NZ,1623026395
473,maniwaki,46.3834,-75.966,84.58,58,99,4.5,CA,1623026396
474,tawau,4.2498,117.8871,80.6,83,20,1.07,MY,1623026397
475,yar-sale,66.8333,70.8333,37.72,66,73,11.59,RU,1623026397
476,asau,46.4333,26.4,56.39,78,37,5.19,RO,1623026398
477,erzin,36.9559,36.2,69.01,61,0,1.97,TR,1623026398
478,atar,20.5169,-13.0499,92.44,15,7,18.43,MR,1623026399
479,noyabrsk,63.1994,75.4507,41.02,54,5,6.85,RU,1623026399
480,ust-nera,64.5667,143.2,62.04,68,100,7.02,RU,1623026399
481,zhifang,30.35,114.3167,82.38,57,100,4.65,CN,1623026400
482,maxixe,-23.8597,35.3472,65.59,77,55,9.75,MZ,1623026400
483,baghdad,33.3406,44.4009,84.11,23,0,13.31,IQ,1623026287
484,ler,8.3018,30.1418,74.39,83,92,3.62,SS,1623026402
485,stokmarknes,68.5646,14.9108,57.0,59,100,5.99,NO,1623026402
486,yumen,40.2833,97.2,62.76,13,100,13.56,CN,1623026403
487,miranda,3.2499,-76.2281,69.93,96,100,3.44,CO,1623026403
488,igatpuri,19.7,73.55,73.67,86,22,5.3,IN,1623026404
489,haian,32.5436,120.45,82.99,56,100,10.54,CN,1623026404
490,jitra,6.2681,100.4217,76.89,100,20,2.3,MY,1623026405
491,minsk,53.9,27.5667,56.95,91,16,6.67,BY,1623026360
492,qarchi gak,37.04,66.7889,94.1,24,0,18.05,AF,1623026405
493,saint-louis,16.3333,-15.0,96.44,19,0,6.91,SN,1623026406
494,ust-tsilma,65.441,52.1498,38.34,64,73,7.7,RU,1623026406
495,uddevalla,58.3478,11.9424,57.2,88,90,4.61,SE,1623026407
496,bryukhovetskaya,45.806,38.9996,54.7,92,100,8.43,RU,1623026407
497,lewisporte,49.2499,-55.0482,45.14,82,100,3.36,CA,1623026408
498,smithers,54.7804,-127.1743,59.0,47,75,12.66,CA,1623026408
499,spencer,43.1414,-95.1444,88.74,42,1,21.85,US,1623026409
500,santiago de cao,-7.9589,-79.2392,66.2,88,90,5.75,PE,1623026409
501,tchollire,8.4022,14.1698,74.17,77,100,3.33,CM,1623026409
502,kichera,55.9375,110.0997,54.81,53,100,4.59,RU,1623026112
503,araouane,18.9048,-3.5265,93.56,19,0,3.69,ML,1623026410
504,adre,13.4667,22.2,80.73,46,38,5.57,TD,1623026411
505,zelenoborsk,61.4669,64.0333,46.2,46,99,6.06,RU,1623026411
506,greymouth,-42.4667,171.2,53.87,86,100,6.26,NZ,1623026411
507,fujin,47.26,132.0322,71.35,50,6,7.56,CN,1623026412
508,talara,-4.5772,-81.2719,68.04,84,100,12.93,PE,1623026412
509,machico,32.7,-16.7667,66.83,77,40,17.27,PT,1623026413
510,quelimane,-17.8786,36.8883,62.55,94,40,3.44,MZ,1623026413
511,san vicente,-26.6167,-54.1333,57.92,98,100,1.57,AR,1623026413
512,springfield,37.2153,-93.2982,75.67,90,75,3.0,US,1623026351
513,kariba,-16.5167,28.8,57.24,67,100,3.94,ZW,1623026414
514,great yarmouth,52.6083,1.7305,59.0,63,57,6.91,GB,1623026415
515,bageshwar,29.85,79.7667,72.41,55,4,1.77,IN,1623026415
516,wanning,18.8003,110.3967,84.7,74,20,4.74,CN,1623026416
517,gigmoto,13.7796,124.39,85.5,71,100,5.1,PH,1623026416
518,san pedro,14.35,121.0167,87.31,77,40,1.61,PH,1623026417
519,santarem,-2.4431,-54.7083,78.93,94,0,4.61,BR,1623026199
520,tulun,54.5611,100.5792,55.45,57,48,7.38,RU,1623026417
521,katobu,-4.9408,122.5276,84.49,60,31,6.55,ID,1623026418
522,linxia,35.6003,103.2064,64.04,52,75,1.07,CN,1623026418
523,boyuibe,-20.4167,-63.2833,60.3,89,79,3.11,BO,1623026418
524,kieta,-6.2167,155.6333,84.94,71,15,6.11,PG,1623026419
525,aleppo,36.25,37.5,65.34,65,0,9.75,SY,1623026419
526,leh,34.1667,77.5833,49.35,28,0,6.11,IN,1623026420
527,ponta delgada,37.7333,-25.6667,65.12,82,20,1.14,PT,1623026420
528,moree,-29.4667,149.85,57.22,54,7,8.05,AU,1623026420
529,boa vista,2.8197,-60.6733,84.18,74,40,3.44,BR,1623026421
530,nuuk,64.1835,-51.7216,41.61,100,90,5.75,GL,1623026421
531,kendari,-3.945,122.4989,83.12,70,67,1.74,ID,1623026422
532,sanandaj,35.3144,46.9923,58.77,31,0,1.99,IR,1623026422
533,strzelce opolskie,50.5107,18.3006,61.72,68,100,1.79,PL,1623026423
534,ketchikan,55.3422,-131.6461,54.07,76,75,14.97,US,1623026423
535,bow island,49.8668,-111.3684,65.46,34,100,5.75,CA,1623026423
536,dudinka,69.4058,86.1778,32.65,91,98,7.16,RU,1623026424
537,sawtell,-30.3833,153.1,64.42,52,6,4.61,AU,1623026424
538,verkhoyansk,67.5447,133.385,57.92,31,100,8.72,RU,1623026425
539,filadelfia,39.9523,-75.1638,86.7,60,20,3.0,US,1623026347
540,nouadhibou,20.931,-17.0347,67.98,77,100,19.57,MR,1623026425
541,zaysan,47.4667,84.8667,59.76,35,19,1.57,KZ,1623026426
542,westport,41.1415,-73.3579,85.55,59,1,1.01,US,1623026316
543,lutkun,41.4808,47.6858,53.74,86,8,4.74,RU,1623026427
544,dalby,-27.1833,151.2667,63.3,41,0,1.79,AU,1623026427
545,awbari,26.5921,12.7805,81.88,18,72,10.4,LY,1623026427
546,nantai,40.9241,122.8044,77.49,41,100,6.08,CN,1623026428
547,lodja,-3.4833,23.4333,68.95,98,90,1.23,CD,1623026428
548,deputatskiy,69.3,139.9,47.3,48,78,9.64,RU,1623026429
549,santiago del estero,-27.7951,-64.2615,57.83,76,63,4.23,AR,1623026429
550,norman wells,65.282,-126.8329,55.44,54,75,8.05,CA,1623026429
551,gashua,12.871,11.0482,83.55,49,41,7.92,NG,1623026430
552,pemba,-12.974,40.5178,69.49,80,3,15.48,MZ,1623026430
553,pareora,-44.4871,171.2132,51.19,95,100,1.9,NZ,1623026431
